stop_id,stop_name,stop_lat,stop_lon,location_type
10000802,Hamraborg,64.111089000000007,-21.908351,0
10000804,Sunnuhlid,64.109082000000001,-21.909596000000001,0
10000805,Kopavogslaug,64.109198,-21.917279,0
10000806,Karsnesskoli,64.109191999999993,-21.924001000000001,0
10000807,Kopavor,64.109298999999993,-21.930667,0
10000808,Hafnarbraut,64.111243999999999,-21.935373999999999,0
10000809,Vesturvor,64.113603999999995,-21.929884000000001,0
10000810,Holtagerdi,64.113681999999997,-21.923297999999999,0
10000811,Bakkahjalli,64.107373999999993,-21.874089999999999,0
10000812,Saebol,64.114525999999998,-21.903531000000001,0
10000814,Skeljabrekka,64.114422000000005,-21.899865999999999,0
10000815,Gul gata,64.113327999999996,-21.84835,0
10000817,Koravegur,64.085384000000005,-21.819621999999999,0
10000818,Gul gata,64.113248999999996,-21.848192000000001,0
10000819,Vigholl,64.111757999999995,-21.884426999999999,0
10000820,MK,64.110166000000007,-21.895859999999999,0
10000821,MK,64.110274000000004,-21.895669000000002,0
10000822,Kopavogsskoli,64.110378999999995,-21.900321999999999,0
10000823,Koravegur,64.085310000000007,-21.818631,0
10000824,Ellidahvammur,64.087018,-21.812823999999999,0
10000825,Arnarsmari,64.099644999999995,-21.904513000000001,0
10000826,Arnarsmari,64.099710999999999,-21.903924,0
10000827,Arnarnesvegur,64.098690000000005,-21.905116,0
10000828,Vigholl,64.111829999999998,-21.884425,0
10000830,Ellidahvammur,64.087173000000007,-21.812628,0
10000831,Lindir,64.098579999999998,-21.870173999999999,0
10000832,Gra gata,64.110889,-21.85211,0
10000834,Salavegur,64.0893318657809,-21.8426006419659,0
10000835,Skogarhjalli,64.106454999999997,-21.855698,0
10000836,Skogarhjalli,64.106594999999999,-21.855848999999999,0
10000837,Fifuhjalli,64.107757000000007,-21.860164999999999,0
10000838,Hjallakirkja,64.109553000000005,-21.866266,0
10000839,Gra gata,64.110900999999998,-21.852318,0
10000842,Birkigrund,64.114069000000001,-21.887445,0
10000843,Birkigrund,64.1143221890465,-21.8876962017482,0
10000844,Furugrund,64.113929999999996,-21.87987,0
10000845,Furugrund,64.1141001281269,-21.8799443092546,0
10000846,Lundarbrekka,64.113677999999993,-21.872197,0
10000847,Lundarbrekka,64.113842,-21.872486,0
10000848,thverbrekka,64.113735,-21.868226,0
10000849,thverbrekka,64.113461000000001,-21.866342,0
10000850,alfabrekka,64.112943999999999,-21.861297,0
10000851,alfabrekka,64.113209,-21.86117,0
10000852,Efstihjalli,64.110757000000007,-21.856081,0
10000853,Efstihjalli,64.110813,-21.855532,0
10000854,Kopavogsdalur,64.107073999999997,-21.905615000000001,0
10000856,Kopavogsdalur,64.106196999999995,-21.903763999999999,0
10000857,Brattabrekka,64.109999999999999,-21.888501000000002,0
10000858,Brattabrekka,64.110157999999998,-21.888489,0
10000859,Kopavogsskoli,64.110292000000001,-21.899697,0
10000860,alfkonuhvarf,64.090785999999994,-21.808157999999999,0
10000862,Dalvegur,64.105857999999998,-21.872156,0
10000863,Dalvegur,64.105812,-21.871791999999999,0
10000864,Smaratorg,64.10427,-21.879688999999999,0
10000865,Smaratorg,64.104185,-21.879448,0
10000872,Smarar,64.102284999999995,-21.892144999999999,0
10000873,Smarar,64.102069999999998,-21.892386999999999,0
10000874,Smaralind,64.102703,-21.886314,0
10000875,Smaralind,64.102525,-21.885823,0
10000876,Lindir,64.098921000000004,-21.871548000000001,0
10000880,Salavegur,64.089365999999998,-21.845248000000002,0
10000882,Lindarvegur,64.100825,-21.871459000000002,0
10000883,Kaldalind,64.102108999999999,-21.864024000000001,0
10000884,Idalind,64.099474000000001,-21.862352999999999,0
10000885,Hvammsvegur,64.096328,-21.858788000000001,0
10000887,Fensalir,64.093776000000005,-21.853171,0
10000889,Korsalir,64.092119999999994,-21.846356,0
10000892,Graenatunga,64.108301999999995,-21.895524000000002,0
10000893,Hlidargardur,64.107808000000006,-21.901346,0
10000894,Hrauntunga,64.108751999999996,-21.890087999999999,0
10000895,Brekkuhjalli,64.107586999999995,-21.879615999999999,0
10000900,Hlidasmari,64.097631,-21.891484,0
10000901,Dalsmari,64.100015,-21.889215,0
10000903,Dalsmari,64.099989,-21.889837,0
10000904,Hlidasmari,64.097616000000002,-21.891752,0
10000906,Huldubraut,64.114277000000001,-21.914967000000001,0
10000907,Hvammsvegur,64.096463,-21.858741999999999,0
10000908,Idalind,64.098855,-21.862279999999998,0
10000909,Kaldalind,64.102216999999996,-21.863889,0
10000910,Lindarvegur,64.100793999999993,-21.871763000000001,0
10000911,Rjupnasalir,64.090012000000002,-21.843933,0
10000917,Digranes,64.110944000000003,-21.873839,0
10000918,Hjallakirkja,64.109514000000004,-21.866139,0
10000919,Fifuhjalli,64.107695000000007,-21.860097,0
10000920,Rjupnavegur,64.086819,-21.83374,0
10000922,Horduvallaskoli,64.084613000000004,-21.825444000000001,0
10000923,Horduvallaskoli,64.084677999999997,-21.826077999999999,0
10000925,Rjupnavegur,64.086905000000002,-21.833584999999999,0
10000926,Digranes,64.110981,-21.873669,0
10000927,Engihjalli,64.109807000000004,-21.860417999999999,0
10000928,Hjalli,64.110826000000003,-21.862431000000001,0
10000929,Hlidargardur,64.1077307521777,-21.9012575604432,0
10000930,Graenatunga,64.1082428971891,-21.8949856142625,0
10000931,Hrauntunga,64.1086400526015,-21.8904403899256,0
10000932,Brekkuhjalli,64.1075388010915,-21.8795335956611,0
10000933,Bakkahjalli,64.1073332858159,-21.8740787033099,0
10000936,Engihjalli,64.1097074496591,-21.860406318069,0
10000937,Saebol,64.1147151489743,-21.9035922496775,0
10000938,Huldubraut,64.114436747609,-21.915096355604,0
10000939,Holtagerdi,64.1138108977218,-21.9233745698796,0
10000940,Vesturvor,64.1137321861171,-21.9293682771579,0
10000941,Hafnarbraut,64.1110764334112,-21.9356735893651,0
10000942,Kopavor,64.1092386222099,-21.931263789341,0
10000943,Karsnesskoli,64.1091270432019,-21.9242167724833,0
10000944,Kopavogslaug,64.1090471314352,-21.9172420900144,0
10000945,alfkonuhvarf,64.090773999999996,-21.807935000000001,0
10000946,alfholl,64.111428000000004,-21.872992,0
10000948,Lundur,64.114587,-21.894919999999999,0
10000949,Lundur,64.1148053730673,-21.8950634999233,0
10000950,Vallakor,64.0847611525669,-21.8202757765777,0
10000951,Bodathing,64.082119000000006,-21.817871,0
10000953,Vikurhvarf,64.0927826838478,-21.8094080550478,0
10000954,ogurhvarf,64.096424999999996,-21.805488,0
10000955,ogurhvarf,64.096530000000001,-21.805769999999999,0
10000956,Vikurhvarf,64.093697000000006,-21.808651000000001,0
10000957,Dalathing,64.08076,-21.813769,0
10000961,alfholl,64.1113109279616,-21.8712193283921,0
10000962,Hjalli,64.1111001509471,-21.865524664794,0
10000963,Sunnuhlid,64.1089980214091,-21.9095188983322,0
10000964,Lindakirkja,64.0943230244082,-21.8617431163278,0
10000965,Lindakirkja,64.0944757904809,-21.8616214526045,0
10000966,Salaskoli,64.0896855104562,-21.8549341473963,0
10000967,Salaskoli,64.0898393254196,-21.8547591189958,0
10000968,Rjupnasalir,64.0901261552729,-21.8436348169245,0
10000969,Korsalir,64.0922066046754,-21.8463327277251,0
10000970,Fensalir,64.0939306587926,-21.8531851724621,0
10010802,Hamraborg A,64.1116425433607,-21.908605556863073,0
10020802,Hamraborg B,64.11165829999837,-21.908316860940364,0
10030802,Hamraborg C,64.11092169362851,-21.907946977592374,0
10040802,Hamraborg D,64.1110634961011,-21.907144056628127,0
11000100,Graenamyri,64.146191000000002,-21.977658999999999,0
11000101,Skerjabraut,64.148336,-21.98321,0
11000102,Eidistorg,64.150700999999998,-21.987076999999999,0
11000103,Grottuvollur,64.149749,-21.994053,0
11000104,Bakkavor,64.151323000000005,-22.002625999999999,0
11000105,Midbraut,64.153259000000006,-22.004812000000001,0
11000106,Haedarbraut,64.155473000000001,-22.003511,0
11000107,Hofgardar,64.157640000000001,-22.001297000000001,0
11000108,Vesturstrond,64.157635999999997,-21.992570000000001,0
11000109,Fornastrond,64.154798,-21.986626999999999,0
11000110,Austurstrond,64.152591999999999,-21.985946999999999,0
11000111,Eidistorg,64.150386999999995,-21.9861,0
11000112,Skerjabraut,64.148036000000005,-21.982980999999999,0
11000113,Graenamyri,64.146086999999994,-21.977692000000001,0
11000147,Bardastrond,64.156782000000007,-21.988204,0
13001201,Arnarneshaed,64.099867000000003,-21.916848999999999,0
13001202,Akrar,64.099334999999996,-21.913226000000002,0
13001204,Akrar,64.099529000000004,-21.912901999999999,0
13001206,Sjavargrund,64.091965000000002,-21.929767999999999,0
13001207,Arnarnesvegur,64.098382999999998,-21.903811000000001,0
13001208,Reynilundur,64.085650999999999,-21.909578,0
13001209,Reynilundur,64.085800000000006,-21.909279000000002,0
13001210,Haedarbyggd,64.088234999999997,-21.907285000000002,0
13001211,Budir,64.089626999999993,-21.904301,0
13001212,Haedarbyggd,64.088218999999995,-21.907533000000001,0
13001218,Vidalinskirkja,64.086775000000003,-21.916422000000001,0
13001219,Gardatorg,64.087861209459,-21.92007600127,0
13001222,FG,64.092528000000001,-21.902847000000001,0
13001223,Blomahaed,64.096422000000004,-21.902784,0
13001224,Budir,64.089579999999998,-21.904582999999999,0
13001225,Blomahaed,64.096019999999996,-21.90212,0
13001226,FG,64.092585,-21.903220999999998,0
13001233,Gardahraun,64.077515000000005,-21.929596,0
13001234,Linakur,64.0979809046859,-21.9071613098249,0
13001300,asgardur A,64.089679000000004,-21.929797000000001,0
13001301,Arnaras,64.09075,-21.942955999999999,0
13001302,Birkias,64.088076000000001,-21.940529000000002,0
13001303,Brekkuas,64.086973,-21.942166,0
13001304,Hraunsholtsbraut,64.085690999999997,-21.950247999999998,0
13001305,Herjolfsbraut,64.084713,-21.966145,0
13001306,Gardaholtsvegur,64.089246000000003,-21.982334000000002,0
13001322,Galgahraun,64.084827000000004,-21.958036,0
13001323,Galgahraun,64.084719000000007,-21.957896000000002,0
13001328,Gardaholtsvegur,64.088768999999999,-21.981235000000002,0
13001329,Herjolfsbraut,64.084810000000004,-21.967694999999999,0
13001330,Sjaland,64.091666000000004,-21.942917999999999,0
13001333,Sjaland,64.091819999999998,-21.942955999999999,0
13001334,Gardatorg,64.08765,-21.91995,0
13001335,Vidalinskirkja,64.086336000000003,-21.915693999999998,0
13001336,Sjavargrund,64.092021000000003,-21.929625999999999,0
13001337,Asparlundur,64.084208000000004,-21.904143000000001,0
13001339,Asparlundur,64.084171999999995,-21.902866,0
13001343,Sudurhraun,64.077766999999994,-21.926525999999999,0
13001344,Austurhraun,64.076160999999999,-21.922743000000001,0
13001345,Midhraun,64.076783000000006,-21.918972,0
13001346,Hraun,64.078025999999994,-21.914425999999999,0
13001347,Hraun,64.078046999999998,-21.914549000000001,0
13001348,Midhraun,64.076843999999994,-21.919125999999999,0
13001349,Austurhraun,64.076222000000001,-21.922933,0
13001350,Sudurhraun,64.077831000000003,-21.926386999999998,0
13001351,Hraunsholtsbraut,64.085576000000003,-21.950153,0
13001352,Brekkuas,64.086952999999994,-21.941986,0
13001353,Birkias,64.088123999999993,-21.940318999999999,0
13001354,Arnaras,64.090879000000001,-21.942775000000001,0
13001355,Sjalandsskoli,64.092082,-21.936259,0
13001356,Sjalandsskoli,64.092176,-21.93456,0
13001361,Kauptun,64.074007,-21.914028,0
13001362,Nonhaed,64.096512,-21.894143,0
13001504,asar,64.086284000000006,-21.937747999999999,0
13001506,Hegranes,64.095162999999999,-21.922373,0
13001507,Arnarneshaed,64.099366000000003,-21.914992000000002,0
13001523,Hegranes,64.096185000000006,-21.921987999999999,0
13001525,asar,64.086354999999998,-21.938268999999998,0
13001584,Gardahraun,64.077451999999994,-21.92963,0
13001586,Vifilsstadir,64.082286,-21.890105,0
13001587,Vifilsstadir,64.083042,-21.896583,0
13001588,asgardur B,64.0902770354474,-21.9294653094709,0
13001589,asgardur C,64.0901120054328,-21.9308091387264,0
13001590,Urridaholtsstraeti,64.0735401248068,-21.9028267489091,0
13001591,Urridaholtsskoli,64.0684342822155,-21.8987324297482,0
13001592,Holtsvegur,64.0689895586691,-21.9042058920442,0
13001593,Natturufraedistofnun islands,64.073927608902,-21.907433737127,0
13001594,ithrottahusid Midgardur,64.0862407280822,-21.8880968642223,0
14001500,Fjordur,64.067849,-21.957284,0
14001501,Hellisgerdi,64.072041999999996,-21.954509999999999,0
14001502,Hraunbrun,64.075941,-21.951317,0
14001503,Nordurbaer,64.079736999999994,-21.948809000000001,0
14001504,Sundholl Hafnarfjardar,64.072402,-21.966206,0
14001506,Skjolvangur,64.077295,-21.965835,0
14001512,Hjallabraut,64.078802,-21.954223,0
14001514,Idnskolinn,64.075418,-21.94595,0
14001515,Kaplakriki,64.0766171163806,-21.9376036338494,0
14001520,Laekjarskoli,64.0670160143399,-21.93988787921,0
14001523,Kaldarselsvegur,64.0587240755895,-21.9360584149224,0
14001525,Godatorg,64.057963,-21.949083,0
14001526,Nordurbaer,64.079085000000006,-21.94997,0
14001527,Hraunbrun,64.074785000000006,-21.952546999999999,0
14001528,Hellisgerdi,64.071811999999994,-21.955183000000002,0
14001535,Vidivangur,64.078841999999995,-21.963587,0
14001536,Midvangur,64.079269999999994,-21.958053,0
14001538,Mavahraun,64.074665,-21.942402,0
14001539,alfaskeid,64.071306000000007,-21.941305,0
14001540,Solvangur,64.068838999999997,-21.939605,0
14001541,Flensborg,64.064380999999997,-21.947991999999999,0
14001542,Flensborg,64.064357000000001,-21.948488999999999,0
14001543,St. Josefsspitali,64.062707000000003,-21.953896,0
14001544,Sudurbaejarlaug,64.060473000000002,-21.962541999999999,0
14001545,ishus Hafnarfjardar,64.062054000000003,-21.961625000000002,0
14001546,Vikingathorpid,64.065841000000006,-21.956042,0
14001547,asvallalaug,64.052061,-21.974783,0
14001551,Midvangur,64.079561999999996,-21.958359000000002,0
14001552,Vidivangur,64.079396000000003,-21.962947,0
14001561,Laekjargata,64.067288000000005,-21.947194,0
14001567,Akurholt,64.055659000000006,-21.979984000000002,0
14001568,Baejarholt,64.057010000000005,-21.982707000000001,0
14001580,St. Josefsspitali,64.062611000000004,-21.953707999999999,0
14001583,Solvangur,64.068899999999999,-21.939511,0
14001587,Sudurbaejarlaug,64.060402999999994,-21.962432,0
14001588,Hlidarberg,64.066405,-21.935842,0
14001589,Birkihlid,64.062641999999997,-21.934570000000001,0
14001596,Hlidarberg,64.067181000000005,-21.936015999999999,0
14001597,Laekjargata,64.067353,-21.948527,0
14001600,Vikingathorpid,64.065194000000005,-21.956772999999998,0
14001601,ishus Hafnarfjardar,64.062178000000003,-21.96172,0
14001602,Kirkjuvellir,64.050652999999997,-21.982216999999999,0
14001603,Daggarvellir,64.048204999999996,-21.980834999999999,0
14001604,Hraunvallaskoli,64.045543255643,-21.979178128346,0
14001605,Haukahus,64.053245000000004,-21.971125000000001,0
14001607,asland I,64.056630999999996,-21.957028000000001,0
14001608,asland II,64.055724999999995,-21.945865000000001,0
14001609,asland I,64.056764999999999,-21.956983999999999,0
14001610,astjorn,64.054939000000005,-21.965700999999999,0
14001611,ola Run tun,64.057241000000005,-21.965128,0
14001612,Haukahus,64.053334000000007,-21.971691,0
14001613,Hraunvallaskoli,64.045546000000002,-21.979054999999999,0
14001614,Daggarvellir,64.048361,-21.980808,0
14001615,Kirkjuvellir,64.050623000000002,-21.981940999999999,0
14001616,asvallalaug,64.052789,-21.975244,0
14001617,Kirkjutorg,64.051702,-21.980002,0
14001618,Kirkjutorg,64.051711,-21.979893,0
14001619,asvallalaug,64.05275,-21.974952,0
14001620,ola Run tun,64.057287000000002,-21.965357000000001,0
14001626,Graenakinn,64.066051000000002,-21.944889,0
14001627,alfaskeid,64.071382,-21.941172000000002,0
14001634,Graenakinn,64.066074999999998,-21.944603999999998,0
14001638,Hnodravellir,64.043227999999999,-21.96752,0
14001639,Glitvellir,64.042418999999995,-21.975853999999998,0
14001640,Hvannavellir,64.043017000000006,-21.977810000000002,0
14001641,Flatahraun,64.075742000000005,-21.941716,0
14001646,Flatahraun,64.075714000000005,-21.943929000000001,0
14001647,Hvannavellir,64.043002999999999,-21.977965999999999,0
14001648,Glitvellir,64.042339999999996,-21.97579,0
14001649,Hnodravellir,64.043163000000007,-21.967206000000001,0
14001650,Brekkutrod,64.060387000000006,-21.978211000000002,0
14001653,Brekkutrod,64.060473000000002,-21.978383999999998,0
14001660,Akurvellir,64.049266000000003,-21.983865999999999,0
14001661,Akurvellir,64.049250999999998,-21.983720999999999,0
14001663,Kaplakriki,64.0769446527884,-21.9374269861653,0
14001665,Skjolvangur,64.077027,-21.966447,0
14001666,Sundholl Hafnarfjardar,64.072377,-21.966695,0
14001667,Nordurbakki,64.069827,-21.962006,0
14001668,Nordurbakki,64.069956,-21.96178,0
14001669,Laekjargata,64.067258,-21.948475,0
14001672,Fagrahlid,64.059575,-21.929398,0
14001673,Laekjarskoli,64.066839,-21.9418,0
14001674,asland III,64.05701,-21.932122,0
14001675,asland III,64.056949,-21.932365,0
14001676,Kaldarselsvegur,64.05917,-21.937516,0
14001677,Godatorg,64.057846,-21.948962,0
14001678,Skipalon,64.062015,-21.972,0
14001679,Skipalon,64.062195,-21.972034,0
14001680,alfholt,64.05656,-21.978164,0
14001681,Miklaholt,64.058947,-21.988155,0
14001682,Fagrahlid,64.059652,-21.929459,0
14001684,Birkihlid,64.062704,-21.934502,0
14001685,Setbergsskoli,64.065152,-21.93409,0
14001686,Bataskylin vid Lonsbraut,64.059424,-21.983909,0
14001687,asvallalaug,64.052513,-21.973977,0
14001688,Berghella,64.045553,-21.991903,0
14001689,Steinhella,64.047713,-21.994591,0
14001690,Raudhella,64.047181,-22.000596,0
14001691,Breidhella,64.041552,-22.002734,0
14001692,alfhella,64.037009,-22.006027,0
14001693,Dranghella,64.037932,-21.99454,0
14001694,Einhella,64.04044,-21.992239,0
14001695,Gjahella,64.045661,-22.000308,0
14001696,Hamranes,64.04328543517,-21.957624142137,0
14001697,Skardshlid,64.0436622356166,-21.9567354837356,0
16031307,Eyvindarstadavegur,64.1061277550452,-22.009885198667,0
16031308,Tungata,64.109385000000003,-22.012975000000001,0
16031309,Jorfavegur,64.114947999999998,-22.005856999999999,0
16031310,Tungata,64.109252999999995,-22.012978,0
16031311,Sjavargata,64.109516999999997,-22.018227,0
16031312,Holmatun,64.108250999999996,-22.021435,0
16031313,Myrarkot,64.104416999999998,-22.027197999999999,0
16031314,Klukkuholt,64.102159999999998,-22.026917000000001,0
16031315,Hofdabraut,64.100104999999999,-22.025576000000001,0
16031317,Brekkuland,64.100621000000004,-22.019044999999998,0
16031318,Hofdabraut,64.100226000000006,-22.025542999999999,0
16031319,Brekkuland,64.100561999999996,-22.018891,0
16031320,alftanesskoli,64.102340999999996,-22.017873999999999,0
16031321,Bessastadir,64.102592000000001,-22.009632,0
16031322,Bessastadir,64.1025974321652,-22.0098531589104,0
16031323,Klukkuholt,64.102224000000007,-22.026779999999999,0
16031324,Myrarkot,64.104472999999999,-22.027018999999999,0
16031325,Holmatun,64.108264000000005,-22.021144,0
16031326,Sjavargata,64.109500999999995,-22.017855000000001,0
16031327,Eyvindarstadavegur,64.106082000000001,-22.009841999999999,0
16040604,Skalatun,64.159549999999996,-21.725659,0
16040606,Klapparhlid,64.163149000000004,-21.727951999999998,0
16040607,Bollatangi,64.168510999999995,-21.717552000000001,0
16040608,Brekkutangi,64.169358000000003,-21.714603,0
16040609,alfatangi,64.1700323065465,-21.7081721206792,0
16040610,Skeidholt,64.1696206480061,-21.6996765174318,0
16040611,Varmarskoli,64.169866999999996,-21.692703000000002,0
16040612,Haholt,64.167205999999993,-21.694365999999999,0
16040613,Krikaskoli,64.163313000000002,-21.687657999999999,0
16040614,Daelustodvarvegur,64.158347000000006,-21.670779,0
16040615,Reykjabyggd,64.155737999999999,-21.663995,0
16040616,Lagafellsskoli,64.165884,-21.725818,0
16040617,Reykjavegur,64.153855,-21.65753,0
16040618,Daelustodvarvegur,64.158349000000001,-21.670577000000002,0
16040619,Haholt,64.167237,-21.693797,0
16040620,FMOS,64.16593,-21.702089,0
16040621,Reykjabyggd,64.155782117462707,-21.6639075700859,0
16040622,Krikaskoli,64.164058999999995,-21.689208000000001,0
16040624,Baejaras,64.171424000000002,-21.677768,0
16040625,Lagafell,64.1607780403207,-21.7195195069781,0
16040626,Lagafell,64.1610835548314,-21.7197697163752,0
16040634,Varmarskoli,64.169967999999997,-21.692647000000001,0
16040635,Skeidholt,64.1696530641305,-21.6998814075743,0
16040636,alfatangi,64.170265999999998,-21.708993,0
16040637,Brekkutangi,64.169377999999995,-21.715147000000002,0
16040638,Bollatangi,64.168441999999999,-21.717853000000002,0
16040639,Lagafellsskoli,64.166032000000001,-21.725909999999999,0
16040641,Skalatun,64.159295999999998,-21.725839000000001,0
16040649,Klapparhlid,64.162987000000001,-21.728159000000002,0
16040650,Voluteigur,64.160713999999999,-21.68113,0
16040651,Voluteigur,64.161111000000005,-21.681836000000001,0
16040652,Baejaras,64.170692000000003,-21.679203999999999,0
16040653,Leirvogstunga,64.183772,-21.682118,0
16040655,Reykjalundur,64.162784000000002,-21.663820000000001,0
16040656,Tjaldanes,64.180301,-21.635617,0
16040657,Mosfell,64.180536000000004,-21.619703999999999,0
16040658,Rodamoi,64.180738000000005,-21.606306,0
16040659,Laxnes,64.180336999999994,-21.590415,0
16040660,Rodamoi,64.18083,-21.606563999999999,0
16040661,Mosfell,64.180615000000003,-21.619986999999998,0
16040662,Tjaldanes,64.18039,-21.635743,0
16040663,alafoss,64.1674549312659,-21.6825120604026,0
16040666,Helgafellsskoli,64.1673578872702,-21.664741757037,0
16040667,Vefarastraeti,64.1689672717032,-21.6714987268818,0
16040668,alafoss,64.1675276419087,-21.6820541257391,0
16040669,FMOS,64.1656954722233,-21.7034970207252,0
16049670,Laxatunga,64.1816750307885,-21.6919785651855,0
16049671,Tungubakkar,64.1845172585536,-21.694540913184,0
16049672,Laxatunga,64.1815937735662,-21.6925666485543,0
16049673,Bjarkarholt,64.1661665888489,-21.6966621476578,0
16049674,Hlegardur,64.1678556347102,-21.692131527505,0
16049675,Leirvogstunga,64.183996,-21.680333,0
20000003,Fitjar,63.973625,-22.54305,0
20000006,Fitjar,63.973935,-22.543178,0
20000007,Midstod,63.993969,-22.551521,0
20000008,Hringbraut / Nordurtun,64.000792,-22.559937,0
20000010,Nesvellir,63.991154,-22.549142,0
20000011,Bolafotur,63.985702,-22.549317,0
20000012,Steinas,63.987306,-22.549081,0
20000013,Njardvikurtorg,63.988328,-22.548869,0
20000014,Stekkjarkot,63.972134,-22.530116,0
20000015,Stekkjarkot,63.971988,-22.530065,0
20000016,Steinas,63.977047,-22.547051,0
20000017,Bolafotur,63.985411,-22.549051,0
20000018,Njardvikurtorg,63.987696,-22.548561,0
20000020,Fjolbrautaskoli Sudurnesja / FS,63.996435,-22.562531,0
20000021,Holtaskoli,63.99847,-22.562761,0
20000022,Hringbraut / Nordurtun,64.00089,-22.559641,0
20000024,Tjarnarhverfi,63.969848,-22.513746,0
20000025,Tjarnarhverfi,63.968518,-22.514284,0
20000026,Kirkjuvogur,63.934303,-22.687508,0
20000027,Landnamsbaerinn,63.935349,-22.685721,0
20000028,Djupivogur,63.933274,-22.682975,0
20000029,Seljavogur,63.933638,-22.680521,0
20000033,Eldey,63.967085,-22.581452,0
20000034,Fjorheimar,63.973134,-22.580261,0
20000036,alsvellir,64.00289,-22.57961,0
20000041,Keilir,63.969351,-22.570984,0
20000042,Keilisbraut,63.97147,-22.575254,0
20000045,Bogabraut,63.972781,-22.56637,0
20000047,Graenasbraut,63.975469,-22.565975,0
20000049,Skogartorg,63.971999,-22.558921,0
20000051,Graenas,63.981577,-22.557891,0
20000053,olafslundur,63.990053,-22.554063,0
20000057,Hjallavegur (Reykjanesbaer),63.989424,-22.550978,0
20000058,Krossmoi,63.993639,-22.549056,0
20000059,Reykjavikurtorg,63.99498,-22.550085,0
20000060,Vatnsholt,64.000254,-22.576353,0
20000061,Baldursgardur,64.002165,-22.570368,0
20000063,Heidarsel,64.009702,-22.575426,0
20000064,Heidarendi,64.010964,-22.575363,0
20000067,Adalgata,64.003242,-22.564256,0
20000069,Vesturgata,64.005994,-22.564646,0
20000072,Myllubakkaskoli,64.001117,-22.556697,0
20000073,Hornbjarg,64.002764,-22.558661,0
20000087,Stekkjargata,63.973027,-22.522569,0
20000090,Akurskoli,63.974372,-22.512978,0
20000092,Spoatjorn,63.97499,-22.505276,0
20000094,Hafdalur,63.974385,-22.50035,0
20000095,Unnardalur,63.972477,-22.495793,0
20000096,Aspardalur,63.97101,-22.490074,0
20000098,Keilir,63.96946,-22.571307,0
20000099,Graenas,63.981447,-22.558577,0
20000100,Heidargardur,64.004759,-22.57717,0
20000101,Heidarskoli,64.006563,-22.575019,0
20000110,KEF - Airport,63.9970686450498,-22.628119,0
20000118,Akurskoli,63.974507,-22.512817,0
20000128,Bogabraut,63.9722,-22.565779,0
20000132,Hringbraut / Melteigur,64.005568,-22.565461,0
20000133,Hringbraut / Knattspyrnuvollur,63.998337744079898,-22.5565331531079,0
20000134,Hringbraut / Knattspyrnuvollur,63.998371222834898,-22.5564066411808,0
20000135,Hringbraut / Melteigur,64.006591,-22.565913,0
20000201,Geirdalur,63.971422,-22.481774,0
20000204,Spoatjorn,63.975008,-22.506048,0
20000247,Hafdalur,63.974637,-22.500403,0
20000248,Stekkjargata,63.973284,-22.521812,0
20000250,Reykjanesholl,63.994958,-22.555162,0
20000251,Skolavegur,63.995951,-22.567352,0
20000252,Kirkjuvegur,64.004656,-22.560814,0
20000253,Holtaskoli,63.998574,-22.563158,0
20000254,Skolavegur,63.99602,-22.568029,0
20000255,Reykjanesholl,63.994811,-22.555116,0
20000256,Steinas,63.977175,-22.547549,0
20000258,Skogarbraut,63.972223,-22.552513,0
20000259,Haaleitisbraut,63.968071,-22.591481,0
20000260,Flugbraut,63.972241,-22.588432,0
20000261,Midstod,63.993969,-22.551521,0
20000262,Unnardalur,63.9726,-22.4957,0
20000609,Aspardalur,63.971153,-22.490191,0
23000001,Grindavik - Adalbraut,63.843765,-22.435763,0
23000002,Logreglustodin Grindavik,63.839459090783301,-22.437825607729099,0
25030001,ithrottamidstodin Sandgerdi,64.033948,-22.700544,0
25030002,Vardan,64.038352,-22.704308,0
25030003,thekkingarsetur Sudurnesja,64.041085322698095,-22.712208956330599,0
25040002,Posthusid Gardi / Gardur,64.069799,-22.651014,0
25040005,Nyjaland,64.075932,-22.668548,0
25040006,Gardvangur,64.0720646878747,-22.657318767610899,0
25040007,Gardvangur,64.072152900000006,-22.657284409999999,0
25040008,Vellir,64.064251040064306,-22.639801909407701,0
25040009,Vellir,64.064288069085194,-22.639762033330999,0
25060001,Grindavikurafleggjari,63.96244,-22.42051,0
25060002,Vogaafleggjari,63.975115,-22.359635,0
25060003,Sveitarfelagid Vogar,63.982788,-22.379973,0
25060005,Vogaafleggjari,63.973609299640799,-22.357684341092298,0
30001807,Gardabraut,64.319620999999998,-22.063735999999999,0
30001808,Baejarskrifstofan,64.320346999999998,-22.069842000000001,0
30001809,Kirkjubraut / Stillholt,64.321487000000005,-22.075413000000001,0
30001810,Akratorg,64.31702,-22.083791,0
30001811,Kirkjubraut / Stillholt,64.321423999999993,-22.074950999999999,0
30001812,Baejarskrifstofan,64.320495,-22.070502,0
30001813,Gardabraut,64.319542999999996,-22.063942999999998,0
30001822,thjodbraut,64.326607442924,-22.0547478363332,0
30001823,Innnesvegur,64.319884999999999,-22.059070999999999,0
30001824,Innnesvegur,64.320121999999998,-22.059034,0
30001825,thjodbraut,64.3266320953141,-22.0541501240127,0
30001827,Bresaflot,64.322727,-22.057072000000002,0
30001828,Bresaflot,64.322708000000006,-22.056719999999999,0
31770001,Stykkisholmur - hofnin,65.077996,-22.72399,0
31770002,Stykkisholmur - Olis,65.072023,-22.733308,0
35111819,Melahverfi,64.38244,-21.849571,0
36091900,Borgarnes,64.54366,-21.911567,0
36091901,Bifrost,64.766313,-21.552072,0
36091902,Hvanneyri,64.563512,-21.760036,0
36091903,Kleppjarnsreykir,64.655831,-21.403658,0
36091904,Reykholt,64.664498,-21.294091,0
36091906,Baula,64.674734,-21.666195,0
36091907,ithrottamidstodin,64.5402084852402,-21.921574032679001,0
36091908,Varmalandsskoli,64.689536,-21.593357,0
37090001,Grundarfjordur,64.925097,-23.260496,0
37100001,Vatnaleid,64.9657155788255,-22.8892991922126,0
37130001,Vegamot,64.849237,-22.733502,0
37140001,olafsvik,64.893979,-23.704382,0
37140002,Rif,64.921473,-23.829734,0
37140003,Hellissandur,64.917249,-23.883747,0
38110001,Budardalur,65.108063,-21.763202,0
38110002,Skriduland,65.3821852089881,-21.8762267930329,0
45020001,Kroksfjardarnes,65.45467,-21.923182,0
45020004,Kroksfjardarnes,65.454697943332803,-21.924041206859901,0
49080001,Stadarskali,65.144715,-21.083616,0
49110001,Holmavik - Kaupfelag,65.700898,-21.685735,0
52000001,Saudarkrokur - N1,65.740862,-19.637706,0
52000002,Varmahlid,65.553491,-19.446279,0
55080001,Hvammstangavegur,65.352475800767095,-20.884436520936799,0
55080003,Vidigerdi,65.381,-20.645,0
56040001,Blonduos,65.659872,-20.2769,0
56110001,Skagastrond,65.8242363570201,-20.300123841206,0
60000001,Midbaer,65.683053,-18.09,0
60000007,thorunnarstraeti / MA,65.676412,-18.098052,0
60000009,thorunnarstraeti / Hlid,65.675047,-18.097684,0
60000010,thorunnarstraeti / Sjukrahus,65.673714,-18.096709,0
60000011,thorunnarstraeti / Sjukrahus,65.673563,-18.097146,0
60000012,thorunnarstraeti / Budartrod,65.67051,-18.095514,0
60000013,thorunnarstraeti / Laekjargata,65.668507,-18.095915,0
60000015,Naustabraut / Krokeyrarnof,65.664222,-18.090241,0
60000019,Naustagata / Vallartun,65.661674,-18.094439,0
60000020,Naustagata / Vallartun,65.66135,-18.09669,0
60000021,Kjarnagata / Somatun,65.662827,-18.099084,0
60000022,Kjarnagata / Somatun,65.662609,-18.099091,0
60000023,Naustaskoli,65.665331,-18.101314,0
60000024,Naustaskoli,65.665231,-18.101313,0
60000027,Kjarnagata / Bonus,65.668767,-18.108311,0
60000028,Kjarnagata / asatun,65.668827,-18.108455,0
60000029,Myrarvegur / Hringteigur,65.669796,-18.101431,0
60000030,Myrarvegur / Hringteigur,65.669739,-18.101614,0
60000031,Myrarvegur / Verkmenntaskoli,65.671948,-18.104293,0
60000032,Myrarvegur / Verkmenntaskoli,65.672619,-18.104441,0
60000035,Skogarlundur / Birkilundur,65.6743,-18.1074,0
60000037,Skogarlundur / Hlidarlundur,65.673676,-18.115512,0
60000038,Skogarlundur / Hjallalundur,65.674142,-18.119973,0
60000039,Skogarlundur / Hjallalundur,65.673827,-18.118833,0
60000040,Skogarlundur / Hrisalundur,65.676372,-18.122134,0
60000041,Skogarlundur / Furulundur,65.676092,-18.122203,0
60000042,thingvallastraeti / Hrisalundur,65.67796,-18.118367,0
60000043,thingvallastraeti / Grundargerdi,65.678032,-18.119354,0
60000045,thingvallastraeti / Dalsbraut,65.678355,-18.112794,0
60000052,thorunnarstraeti / Hamarstigur,65.68085,-18.100242,0
60000053,thorunnarstraeti / Hamarstigur,65.681825,-18.100031,0
60000054,thorunnarstraeti / Logreglustod,65.684553,-18.100572,0
60000055,thorunnarstraeti / Logreglustod,65.685086,-18.100399,0
60000056,Glerargata / thorunnarstraeti,65.687484,-18.098031,0
60000057,Drottningarbraut,65.680149,-18.087338,0
60000061,Adalstraeti / Duggufjara,65.668997,-18.085852,0
60000062,Adalstraeti / Duggufjara,65.66892,-18.08582,0
60000063,Adalstraeti / Minjasafn,65.666318,-18.084971,0
60000064,Adalstraeti / Minjasafn,65.666535,-18.084775,0
60000065,Skautaholl,65.664106,-18.082991,0
60000066,Skautaholl,65.664067,-18.083244,0
60000067,Midhusabraut,65.661629,-18.084111,0
60000068,Midhusabraut,65.661222,-18.08483,0
60000069,Glerargata / Eidsvallagata,65.685509,-18.091164,0
60000070,Glerargata / Eyrarvegur,65.687259,-18.096295,0
60000071,Borgarbraut / Glerartorg,65.688442,-18.103093,0
60000072,Borgarbraut / Glerartorg,65.688173,-18.103687,0
60000073,Borgarbraut / Haskoli,65.687106,-18.120173,0
60000074,Borgarbraut / Haskoli,65.687289,-18.122405,0
60000075,Hlidarbraut / Borgarbraut,65.686596,-18.129162,0
60000076,Merkigil / Kidagil,65.684259,-18.130902,0
60000077,Merkigil / Kidagil,65.684187,-18.131765,0
60000078,Merkigil / Vesturgil,65.683851,-18.138579,0
60000079,Merkigil / Vesturgil,65.683492,-18.138369,0
60000080,Merkigil / Skuggagil,65.68549,-18.14048,0
60000081,Merkigil / Urdargil,65.687645,-18.141245,0
60000082,Merkigil / Urdargil,65.687563,-18.141172,0
60000083,Bugdusida / Nupasida,65.688269,-18.136218,0
60000084,Bugdusida / Vestursida,65.688803,-18.135289,0
60000085,Vestursida / Logmannshlid,65.689778,-18.138472,0
60000086,Vestursida / Logmannshlid,65.689528,-18.137961,0
60000087,Vestursida / Brattasida,65.691614,-18.14159,0
60000088,Vestursida / Brattasida,65.691989,-18.141542,0
60000089,Vestursida / Baejarsida,65.694333,-18.143371,0
60000090,Vestursida / Baejarsida,65.694557,-18.14418,0
60000091,Midsida,65.69608,-18.14319,0
60000092,Midsida / Moasida,65.696066,-18.142001,0
60000093,Midsida / Mulasida,65.694974,-18.136863,0
60000094,Midsida / Mulasida,65.694808,-18.13657,0
60000095,Bugdusida / Bjarg,65.694203,-18.132513,0
60000096,Bugdusida / Bjarg,65.694296,-18.132572,0
60000097,Austursida / Lindarsida,65.695,-18.12924,0
60000098,Austursida / Lindarsida,65.694946,-18.129359,0
60000103,Skardshlid / Sunnuhlid,65.691181,-18.126235,0
60000105,Skardshlid / Fosshlid,65.689081,-18.124116,0
60000108,Glerarskoli,65.68822,-18.117563,0
60000110,Hofdahlid / ashlid,65.68837,-18.112498,0
60000112,Hlidarbol,65.690419,-18.109798,0
60000113,Horgarbraut / thverholt,65.693625,-18.114872,0
60000114,Horgarbraut / Undirhlid,65.691858,-18.109864,0
60000115,Horgarbraut / Storholt,65.690776,-18.107598,0
60000116,Horgarbraut / Storholt,65.69093,-18.107199,0
60000117,Glerarbru,65.689287,-18.102869,0
60000118,Glerarbru,65.689223,-18.103407,0
60000119,Tryggvabraut / Hvannavellir,65.689801,-18.09744,0
60000120,Hjalteyrargata / Furuvellir,65.691337,-18.091652,0
60000123,Hjalteyrargata / Granufelagsgata,65.686749,-18.082842,0
60000124,Rettarhvammur,65.679715,-18.131744,0
60000125,Rettarhvammur,65.678866,-18.131584,0
60000126,thingvallastraeti / Palmholt,65.677699,-18.12388,0
60000128,Skogarlundur / Hlidarlundur,65.673686,-18.114603,0
60000129,Mimisbraut / Verkmenntaskoli,65.672467,-18.103809,0
60000130,thingvallastraeti / Furulundur,65.677423,-18.126252,0
60000132,Hjalteyrargata / Grenivellir,65.689563,-18.086457,0
60000137,thingvallastraeti / Byggdavegur,65.679119,-18.103151,0
60000139,Kaupvangsstraeti,65.680587,-18.090284,0
60000140,Hlidarbraut / Trollagil,65.686593,-18.129323,0
60000141,Glerargata / Radhus,65.685184,-18.091117,0
60000142,Tryggvabraut / Slokkvistod,65.691062,-18.093708,0
60000143,Tryggvabraut / Hvannavellir,65.689918,-18.097514,0
60000150,Akureyri - Hof,65.68395,-18.08767,0
60000151,Hjalteyrargata / Granufelagsgata,65.68643,-18.0832,0
60000152,Hjalteyrargata / Grenivellir,65.68965,-18.0865,0
60000153,Skardshlid / Undirhlid,65.69111,-18.1118,0
60000154,Skardshlid / Boginn,65.693,-18.1184,0
60000155,Smarahlid,65.69277,-18.1254,0
60000156,Hlidarbraut / Austursida,65.6948,-18.1255,0
60000157,Smarahlid,65.69275,-18.1255,0
60000158,Skardshlid / Boginn,65.69296,-18.1185,0
60000159,Skardshlid / Undirhlid,65.69095,-18.1115,0
60000160,Merkigil / Skuggagil,65.685215,-18.139989,0
60000161,Dalsbraut / Storagerdi,65.6804,-18.1159,0
60000162,Dalsbraut / Klettaborg,65.68494,-18.1152,0
60000163,Dalsbraut / Nordurslod,65.68426,-18.1158,0
60000164,Dalsbraut / Storagerdi,65.67955,-18.1159,0
60000165,thingvallastraeti / Myrarvegur,65.678781,-18.108669,0
60000166,thorunnarstraeti / ithrottaholl,65.67809,-18.09917,0
60000167,Skogarlundur / Birkilundur,65.67435,-18.1073,0
60000168,Naustabraut / Krokeyrarnof,65.66406,-18.0899,0
60000169,thorunnarstraeti / Laekjargata,65.66857,-18.0957,0
60000170,thorunnarstraeti / Budartrod,65.67141,-18.0958,0
60000172,thorunnarstraeti / ithrottaholl,65.67835,-18.099,0
60000173,thingvallastraeti / Byggdavegur,65.67931,-18.1016,0
60000174,thingvallastraeti / Myrarvegur,65.67877,-18.1086,0
60000175,Hafnarstraeti / Adalstraeti,65.67218,-18.0859,0
60000176,Hafnarstraeti / Adalstraeti,65.67254,-18.0863,0
60000177,Drottningarbraut,65.6801,-18.0872,0
60000178,thingvallastraeti / Dalsbraut,65.678262,-18.115904,0
60000179,Kjarnagata / Naustagata,65.66117,-18.09893,0
60000183,Kjarnagata / Joninnuhagi A,65.656984,-18.094501,0
60000184,Kjarnagata / Joninnuhagi V,65.656452,-18.097456,0
60000185,Wilhelminugata / Nonnahagi N,65.65661,-18.0905,0
60000186,Wilhelminugata / Nonnahagi S,65.65653,-18.09028,0
60000187,Naustabraut / Davidshagi V,65.659628,-18.090155,0
60000188,Naustabraut / Davidshagi A,65.65982,-18.09021,0
60000189,Kjarnagata / Geirthrudarhagi A,65.659261,-18.096754,0
60000190,Kjarnagata / Elisabetarhagi,65.660625,-18.099883,0
60000191,Kjarnagata / Geirthrudarhagi V,65.658408,-18.099526,0
61000001,Husavik,66.046915,-17.343375,0
61000005,Jokulsa a Fjollum,65.626341,-16.17725,0
62500001,olafsfjordur - Adalgata,66.07082,-18.655939,0
62500002,Siglufjordur - Olis,66.149834,-18.903148,0
62500003,Siglufjordur - Snorragata sudur,66.142078,-18.915306,0
62500004,Siglufjordur - Snorragata sudur,66.141952,-18.915041,0
62500005,olafsfjordur - Adalgata,66.070939,-18.657531,0
62500006,olafsfjordur - Mulavegur,66.074536,-18.642085,0
62500007,olafsfjordur - Mulavegur,66.074606,-18.642297,0
64000001,Dalvik,65.966988,-18.529751,0
65060001,Hjalteyri - Vegamot,65.758471,-18.232226,0
65060002,Litli arskogssandur - Vegamot,65.928321,-18.364432,0
66070001,Myvatn - Reykjahlid,65.642,-16.911,0
66070002,Skutustadir,65.567,-17.029,0
66090001,Adaldalsvegur,65.886061,-17.437669,0
66120001,Fnjoskarbru,65.7467,-17.912,0
66120002,Nordausturvegur,65.705251,-17.622566,0
66120003,Fossholl - Godafoss,65.686,-17.539,0
66120004,Laugar,65.7211000968779,-17.3719457585166,0
66120005,Laugar - Einarsstadaskali,65.7381532924222,-17.4090906750738,0
70007101,Seydisfjordur - Herdubreid,65.260099999999994,-14.0067,0
73007351,Reydarfjordur / Fjardarbyggdarhollin,65.033900000000003,-14.2121,0
73007352,Reydarfjordur - Barkur,65.031300000000002,-14.206799999999999,0
73007353,Reydarfjordur - Molinn,65.0323,-14.2186,0
73007354,Reydarfjordur - Orkuskalinn,65.034400000000005,-14.2278,0
73007356,Eskifjordur - Sundlaug,65.077299999999994,-14.035,0
73007357,Eskifjordur - Shellskali,65.075800000000001,-14.0221,0
73007358,Eskifjordur - Steinholt,65.066599999999994,-14.0038,0
73007359,Eskifjordur - Valholl,65.070800000000006,-14.0131,0
73007360,Reydarfjordur - Launafl,65.03045,-14.12365,0
73007401,Nordfjordur - Nesbakki,65.148499999999999,-13.667999999999999,0
73007402,Nordfjordur - VA,65.148899999999998,-13.6785,0
73007403,Nordfjordur - Midstraeti,65.1484,-13.69,0
73007404,Nordfjordur - Hafnarbraut,65.1479,-13.6982,0
73007405,Nordfjordur - Orkuskalinn,65.147499999999994,-13.706899999999999,0
73007551,Faskrudsfjordur - Kirkjugardur,64.934200000000004,-14.0281,0
73007553,Faskrudsfjordur - Skrudur,64.929199999999994,-14.0076,0
73007557,Stodvarfjordur - Brekkan,64.833,-13.8738,0
73007558,Reydarfjordur - Barkur,65.031219,-14.206566,0
75097201,Borgarfjordur - Fjardarborg,65.5274,-13.8172,0
76137601,Breiddalsvik - Kaupfjelagid,64.7921,-14.0094,0
76177651,Djupivogur - Hotel Framtid,64.656300000000002,-14.2807,0
76200001,Vopnafjordur - Vegamot,65.459261,-15.50708,0
76200002,Skjoldolfsstadir,65.31667,-15.1163,0
76200003,Fellabaer - Olis,65.2825,-14.4257,0
76200005,Egilsstadir - Tjaldsvaedid,65.2587083533151,-14.4069628003902,0
76207002,Egilsstadir - Flugvollur,65.274799999999999,-14.4062,0
76207005,Egilsstadir - ithrottamidstod,65.266800000000003,-14.3965,0
77080001,Hofn i Hornafirdi - Sundlaug,64.254227,-15.207482,0
77080002,Freysnes,63.990386,-16.893033,0
77080003,Skaftafell,64.015611,-16.965545,0
77080004,Skaftafell,64.015599,-16.9654,0
77080005,Freysnes,63.990355,-16.893124,0
77080007,Jokulsarlon,64.048489,-16.178764,0
77080008,Jokulsarlon,64.048489,-16.178764,0
77087801,Hofn - Flugvollur,64.302199999999999,-15.2262,0
80000001,Landeyjahofn,63.5302704101473,-20.1174929082944,0
82000001,Selfoss - N1,63.937021999999999,-20.987521999999998,0
82000002,Selfoss - Radhusid,63.937351,-21.001897,0
82000003,Hrismyri,63.9458672278451,-21.009603245661,0
82000004,Fossnes,63.9454144510351,-21.0112135226167,0
82000005,Selfoss - Radhusid,63.937271000000003,-21.001902000000001,0
82000006,Selfoss - FSU,63.932287,-20.999224,0
82000011,Selfoss - Vallaskoli,63.933829,-20.995979,0
82000012,Selfoss - Sundholl,63.935726,-20.998903,0
82000013,Selfoss - Sundholl,63.935719,-20.998998,0
82000036,Selfoss - Vallaskoli,63.933871,-20.995996,0
85080001,Vik i Myrdal,63.4176417832814,-19.0005910349656,0
85090002,Kirkjubaejarklaustur,63.793694,-18.03875,0
86130001,Hvolsvollur,63.749494,-20.23306,0
86130002,Hvolsvollur,63.749747,-20.232882,0
86130003,Skogar,63.5273201394052,-19.5121962579437,0
86140001,Hella,63.834862,-20.401652,0
86140002,Hella,63.834994,-20.401563,0
87100001,Fludir,64.1308641273949,-20.3214083190065,0
87160001,Hveragerdi,63.995477,-21.184366,0
87160002,Hveragerdi,63.995464,-21.184515,0
87170001,thorlakshofn,63.856668,-21.383841,0
87190001,Borg i Grimsnesi,64.0746664731188,-20.7643082216857,0
87190003,thrastarlundur,64.01444,-20.949087,0
87190004,thoroddsstadir,64.119065,-20.708499,0
87190005,thoroddsstadir,64.119199,-20.708822,0
87200001,Brautarholt,64.023167,-20.521894,0
87200002,Skeida- og thjorsardalsvegur,64.046013,-20.411393,0
87210001,Reykholt,64.177459,-20.453062,0
87210002,Laugaras. Blaskogabyggd,64.1124128088205,-20.5056009277731,0
87210003,Laugarvatn,64.220175,-20.732191,0
90000001,Laekjartorg B,64.147504999999995,-21.934808,0
90000002,thjodleikhusid,64.146761999999995,-21.931048000000001,0
90000003,Hallargardurinn,64.143101000000001,-21.940087999999999,0
90000004,MR,64.146477000000004,-21.937258,0
90000006,BSi,64.137099,-21.933662,0
90000007,BSi,64.137941598162499,-21.9339090580538,0
90000009,oskjuhlid,64.130841,-21.929604,0
90000011,Snorrabraut,64.138750000000002,-21.921420000000001,0
90000013,Kringlan,64.131921000000006,-21.889215,0
90000015,Kringlumyrarbraut,64.130009,-21.900467,0
90000016,Kringlumyrarbraut,64.129588,-21.899836,0
90000018,artun B,64.123754000000005,-21.821591000000002,0
90000019,artun A,64.124213999999995,-21.822106999999999,0
90000020,Grandi,64.155814000000007,-21.941402,0
90000021,Grandagardur,64.153042999999997,-21.951070000000001,0
90000022,Myrargata,64.151381000000001,-21.948571000000001,0
90000029,Skarfagardar,64.153822000000005,-21.869633,0
90000030,thjodskjalasafnid,64.142627000000005,-21.90634,0
90000031,Hatun,64.140660999999994,-21.896675999999999,0
90000032,Engjateigur,64.140141999999997,-21.887948000000002,0
90000033,Laugardalsholl,64.138023000000004,-21.877569999999999,0
90000034,Laugardalur,64.135553000000002,-21.873334,0
90000036,Teigar,64.144585000000006,-21.892053000000001,0
90000037,Tun,64.143826000000004,-21.892754,0
90000038,Morkin,64.129480999999998,-21.863616,0
90000039,Morkin,64.129536999999999,-21.863101,0
90000040,Skeidarvogur,64.132948999999996,-21.855219999999999,0
90000041,Heimar,64.133503,-21.869105,0
90000042,Heimar,64.132639,-21.868289,0
90000044,Ljosheimar,64.13203,-21.863386999999999,0
90000045,Glaesibaer,64.133900999999994,-21.867151,0
90000046,Laugardalur,64.136435000000006,-21.874203000000001,0
90000047,Laugardalsholl,64.139195999999998,-21.879543000000002,0
90000048,Engjateigur,64.140316999999996,-21.889824000000001,0
90000049,Hatun,64.141194999999996,-21.898187,0
90000050,thjodskjalasafnid,64.142926,-21.907164,0
90000051,Skarfagardar,64.153716000000003,-21.869696000000001,0
90000052,Baronsstigur,64.144475,-21.918977999999999,0
90000054,thjodleikhusid,64.146842000000007,-21.930941000000001,0
90000055,Laekjartorg A,64.147464999999997,-21.936230999999999,0
90000056,Radhusid,64.146559999999994,-21.942413999999999,0
90000057,Radhusid,64.146261999999993,-21.941607000000001,0
90000061,Myrargata,64.151683000000006,-21.949006000000001,0
90000062,Grandagardur,64.153109000000001,-21.949784000000001,0
90000063,Grunnslod,64.154464000000004,-21.947669000000001,0
90000064,Fiskislod,64.155849000000003,-21.945205000000001,0
90000068,Stekkjarbakki,64.107754999999997,-21.841087000000002,0
90000069,Leirubakki,64.104746000000006,-21.835345,0
90000071,Seljakirkja,64.098157999999998,-21.846830000000001,0
90000072,Seljakirkja,64.098067999999998,-21.846626000000001,0
90000073,Eyjabakki,64.110277999999994,-21.828901999999999,0
90000074,Dvergabakki,64.110315,-21.834713000000001,0
90000075,Mjodd,64.109701999999999,-21.842642999999999,0
90000076,Vikin,64.120518000000004,-21.854944,0
90000077,Bustadakirkja,64.120818999999997,-21.860312,0
90000078,Hordaland,64.121407000000005,-21.865542999999999,0
90000079,Grimsbaer,64.122631999999996,-21.876021999999999,0
90000080,Adalland,64.123416000000006,-21.883334000000001,0
90000081,Borgarspitalinn,64.124171000000004,-21.888175,0
90000083,RuV,64.125810999999999,-21.888448,0
90000084,RuV,64.125855000000001,-21.887882999999999,0
90000085,Glaesibaer,64.133969,-21.866965,0
90000086,Fellsmuli,64.131416000000002,-21.883033000000001,0
90000087,Haaleitisbraut,64.133427999999995,-21.882667999999999,0
90000088,Samgongustofa,64.136689000000004,-21.887231,0
90000089,Lagmuli,64.137862999999996,-21.891022,0
90000090,Hateigsskoli,64.137293999999997,-21.898216000000001,0
90000091,Hateigskirkja,64.138126999999997,-21.904177000000001,0
90000092,Medalholt,64.138844000000006,-21.909261999999998,0
90000093,Raudararstigur,64.140247000000002,-21.915137999999999,0
90000094,thjodminjasafnid,64.142291,-21.949048999999999,0
90000096,Grandavegur,64.147909999999996,-21.960201000000001,0
90000097,Meistaravellir,64.147192000000004,-21.963691000000001,0
90000098,KR,64.146040999999997,-21.965254999999999,0
90000099,Kaplaskjolsvegur,64.144987,-21.969866,0
90000114,Kaplaskjol,64.144683000000001,-21.97099,0
90000115,KR,64.146022000000002,-21.96482,0
90000116,Meistaravellir,64.147147000000004,-21.963372,0
90000117,Grandavegur,64.147845000000004,-21.959979000000001,0
90000119,Raudararstigur,64.140139000000005,-21.915417000000001,0
90000120,Medalholt,64.138605999999996,-21.908553000000001,0
90000121,Hateigskirkja,64.137991999999997,-21.903821000000001,0
90000122,Hateigsskoli,64.137244999999993,-21.898561999999998,0
90000124,Lagmuli,64.137737000000001,-21.891639999999999,0
90000125,Samgongustofa,64.136178999999998,-21.887205000000002,0
90000126,Haaleitisbraut,64.133848,-21.883876999999998,0
90000127,Fellsmuli,64.131478000000001,-21.883642999999999,0
90000129,thveras,64.1035448158214,-21.783479,0
90000132,Borgarspitalinn,64.123796999999996,-21.886690000000002,0
90000133,Adalland,64.123012000000003,-21.881727999999999,0
90000134,Grimsbaer,64.122275000000002,-21.874306000000001,0
90000135,Hordaland,64.121174999999994,-21.864595999999999,0
90000136,Bustadakirkja,64.120459999999994,-21.858523000000002,0
90000137,Vikin,64.120418000000001,-21.852499000000002,0
90000138,Ellidaardalur,64.117293000000004,-21.844929,0
90000139,Dvergabakki,64.110214999999997,-21.834441999999999,0
90000140,Eyjabakki,64.110163999999997,-21.828050000000001,0
90000141,Holabrekkuskoli,64.108001999999999,-21.817554999999999,0
90000142,Austurgerdi,64.120923000000005,-21.853695999999999,0
90000143,Austurgerdi,64.120937999999995,-21.853898000000001,0
90000144,Leirubakki,64.104906999999997,-21.835332999999999,0
90000145,Stekkjarbakki,64.108241000000007,-21.840572000000002,0
90000146,Landspitali Fossvogi,64.123007000000001,-21.8916,0
90000148,Hadegismoar,64.113864000000007,-21.776368000000002,0
90000150,Grundargerdi,64.127955999999998,-21.870843000000001,0
90000151,Ellidaardalur,64.118983999999998,-21.845509,0
90000154,Baejarhals,64.120681000000005,-21.808814000000002,0
90000155,Vogar,64.134956000000003,-21.849685000000001,0
90000156,Holtagardar,64.141338000000005,-21.850282,0
90000157,Saegardar,64.143242000000001,-21.852083,0
90000158,Bardastadir,64.156867000000005,-21.750616999999998,0
90000159,Saegardar,64.142990999999995,-21.852385000000002,0
90000160,Sundagardar,64.150577999999996,-21.871116000000001,0
90000161,Akurgerdi,64.128536999999994,-21.874255999999999,0
90000162,LHi Laugarnesi,64.151443,-21.882252000000001,0
90000163,Laugalaekur,64.149201000000005,-21.884996000000001,0
90000164,Laugarnesvegur,64.146968000000001,-21.888725999999998,0
90000165,Soltun,64.146184000000005,-21.896419999999999,0
90000167,Landakot,64.147752999999994,-21.951418,0
90000168,asvallagata,64.146702000000005,-21.954384000000001,0
90000169,Reynimelur,64.145408000000003,-21.958062999999999,0
90000170,Hagi,64.143855000000002,-21.962456,0
90000171,Melaskoli,64.142178999999999,-21.958518999999999,0
90000172,Kvisthagi,64.141748000000007,-21.961682,0
90000173,Dunhagi,64.138790999999998,-21.958537,0
90000174,islensk Erfdagreining,64.135388000000006,-21.944293999999999,0
90000175,islensk Erfdagreining,64.135558000000003,-21.943653000000001,0
90000176,aegisida,64.142610000000005,-21.965501,0
90000177,Reykjavikurflugvollur,64.132627999999997,-21.949452999999998,0
90000178,Reykjavikurflugvollur,64.132694999999998,-21.949186999999998,0
90000179,asvallagata,64.146711999999994,-21.954029999999999,0
90000180,Landakot,64.147682000000003,-21.951281000000002,0
90000182,Soltun,64.146084999999999,-21.895788,0
90000183,Laugarnesvegur,64.146955000000005,-21.888466999999999,0
90000184,Laugalaekur,64.149219000000002,-21.884687,0
90000185,LHi Laugarnesi,64.150977999999995,-21.882624,0
90000187,Dalbraut,64.150644,-21.875004000000001,0
90000188,Laugaras,64.149017999999998,-21.867405999999999,0
90000190,Bakkastadir,64.158095000000003,-21.751086999999998,0
90000191,Holtagardar,64.140213000000003,-21.850695999999999,0
90000192,Sudurver,64.130847000000003,-21.902054,0
90000193,Vogar,64.133594000000002,-21.850186999999998,0
90000198,Birtingakvisl,64.123307,-21.822564,0
90000200,Skerjafjordur,64.126020999999994,-21.949149999999999,0
90000201,Skeljanes,64.128043000000005,-21.946857999999999,0
90000202,Skeljanes,64.128020000000006,-21.947071000000001,0
90000203,Bauganes,64.130487000000002,-21.953125,0
90000204,thorragata,64.132767000000001,-21.952677999999999,0
90000205,thorragata,64.132907000000003,-21.953046000000001,0
90000206,Skerjagardar,64.135620000000003,-21.956061999999999,0
90000207,Studentagardar,64.137293,-21.954183,0
90000208,Kvisthagi,64.141752999999994,-21.961425999999999,0
90000209,Hagatorg,64.141204999999999,-21.954021999999998,0
90000210,thjodarbokhladan,64.1435118726051,-21.9511478070477,0
90000211,Hedinsgata,64.152135000000001,-21.881371000000001,0
90000212,Hofdatorg,64.1453635005561,-21.9075736844657,0
90000213,Laugardalslaug,64.146651000000006,-21.879681000000001,0
90000214,Laugarasvegur,64.146765000000002,-21.872312999999998,0
90000215,Hrafnista,64.146572000000006,-21.866614999999999,0
90000216,Dragavegur,64.145149000000004,-21.864176,0
90000217,Austurbrun,64.143991,-21.864578000000002,0
90000218,Holsvegur,64.142426,-21.860592,0
90000219,Sunnutorg,64.141076999999996,-21.861325999999998,0
90000220,Langholtsskoli,64.138677000000001,-21.859358,0
90000221,Langholtskirkja,64.136089999999996,-21.856742000000001,0
90000222,Skeidarvogur,64.133346000000003,-21.854507999999999,0
90000223,MS,64.131214,-21.861474999999999,0
90000224,armuli,64.132621999999998,-21.873460999999999,0
90000225,Grensas,64.130303999999995,-21.875174999999999,0
90000226,Haskolatorg,64.140344,-21.950761,0
90000227,thjodminjasafnid,64.142334000000005,-21.948415000000001,0
90000228,Haagerdi,64.126182,-21.864211000000001,0
90000229,Borgargerdi,64.124852000000004,-21.859741,0
90000230,Tunguvegur,64.122957,-21.855559,0
90000231,Landspitali Fossvogi,64.123247000000006,-21.891514999999998,0
90000232,Slettuvegur,64.123625000000004,-21.894418999999999,0
90000233,Dunhagi,64.138760000000005,-21.957975000000001,0
90000234,Tunguvegur,64.123034000000004,-21.855433000000001,0
90000235,Borgargerdi,64.124973999999995,-21.859756000000001,0
90000236,Haagerdi,64.126677000000001,-21.865428999999999,0
90000237,Grundargerdi,64.128128000000004,-21.871257,0
90000238,Akurgerdi,64.128591,-21.874015,0
90000239,Grensas,64.130322000000007,-21.874594999999999,0
90000240,armuli,64.1322884879095,-21.8732541943065,0
90000241,Ljosheimar,64.131991999999997,-21.863696000000001,0
90000242,MS,64.131254999999996,-21.860710000000001,0
90000243,Langholtskirkja,64.136089999999996,-21.856421000000001,0
90000244,Langholtsskoli,64.138972999999993,-21.859317000000001,0
90000245,Sunnutorg,64.141084000000006,-21.861124,0
90000246,Verold,64.139741000000001,-21.951910999999999,0
90000247,Austurbrun,64.143486999999993,-21.864643000000001,0
90000248,Dragavegur,64.145522999999997,-21.863876000000001,0
90000249,Hrafnista,64.146758000000005,-21.867253000000002,0
90000250,Laugarasvegur,64.146877000000003,-21.873929,0
90000251,Laugardalslaug,64.146805999999998,-21.879884000000001,0
90000252,Hofdatorg,64.145431000000002,-21.908256999999999,0
90000253,Hedinsgata,64.152190000000004,-21.880973000000001,0
90000254,thjodarbokhladan,64.1434555523398,-21.9514627933193,0
90000255,Hagatorg,64.14219,-21.953469,0
90000256,Studentagardar,64.137371000000002,-21.954611,0
90000257,Skerjagardar,64.135383000000004,-21.956831999999999,0
90000258,Bauganes,64.130375999999998,-21.952942,0
90000259,Kjarvalsstadir,64.138238999999999,-21.911937000000002,0
90000260,Nethylur,64.122247999999999,-21.814985,0
90000261,Birtingakvisl,64.12348,-21.821,0
90000262,Gullinbru,64.132431999999994,-21.814488000000001,0
90000263,Kjarvalsstadir,64.138356999999999,-21.912098,0
90000264,Ingunnarskoli,64.126644999999996,-21.757383000000001,0
90000265,Geislabaugur,64.126738000000003,-21.750591,0
90000266,thordarsveigur,64.126209000000003,-21.743942000000001,0
90000267,Austurver,64.127986000000007,-21.886471,0
90000268,Borgarleikhus,64.128443000000004,-21.895755000000001,0
90000269,Saemundarskoli,64.125862999999995,-21.739941999999999,0
90000270,MH,64.131308000000004,-21.907267999999998,0
90000271,Mavahlid,64.133427999999995,-21.911563000000001,0
90000272,Langahlid,64.135536999999999,-21.909839999999999,0
90000273,Flokagata,64.137355999999997,-21.908407,0
90000274,Melaskoli,64.142334000000005,-21.958472,0
90000275,aegisborg,64.143521000000007,-21.966996000000002,0
90000276,Kaplaskjol,64.144942,-21.97167,0
90000277,oldugrandi,64.150563000000005,-21.981538,0
90000278,Seilugrandi,64.149861000000001,-21.976382000000001,0
90000279,Keilugrandi,64.149580999999998,-21.971682000000001,0
90000280,Bodagrandi,64.149894000000003,-21.967355000000001,0
90000281,JL husid,64.150306,-21.959982,0
90000282,Flokagata,64.137407999999994,-21.908802999999999,0
90000283,Langahlid,64.135504999999995,-21.910371999999999,0
90000284,Mavahlid,64.133426,-21.911883,0
90000285,MH,64.131193999999994,-21.90699,0
90000286,Sudurver,64.130705000000006,-21.901821000000002,0
90000287,Verzlo,64.128162000000003,-21.895202999999999,0
90000288,Austurver,64.128950000000003,-21.885133,0
90000289,thusold,64.128636999999998,-21.767074000000001,0
90000290,Mariubaugur,64.127098000000004,-21.765626999999999,0
90000291,Korpa,64.157482999999999,-21.755441999999999,0
90000292,Snorrabraut,64.138481999999996,-21.921249,0
90000295,Hlemmur,64.143253000000001,-21.914211000000002,0
90000296,Haskoli islands,64.141782000000006,-21.946535000000001,0
90000301,Perlan,64.130144999999999,-21.914348,0
90000302,Vedurstofan,64.126990000000006,-21.907185999999999,0
90000303,Rafstodvarvegur,64.123937999999995,-21.840328,0
90000304,Fylkisvegur,64.114242000000004,-21.790704000000002,0
90000305,Fylkisvegur,64.114279999999994,-21.790483999999999,0
90000306,Breidhofdi,64.128770000000003,-21.823604,0
90000308,Storhofdi,64.128907999999996,-21.814619,0
90000312,Studlahals,64.121594000000002,-21.790838999999998,0
90000315,Hraunsas,64.113179000000002,-21.788440999999999,0
90000316,Brekkubaer,64.115510999999998,-21.791777,0
90000317,arbaejarskoli,64.116201000000004,-21.796686000000001,0
90000318,Habaer,64.116902999999994,-21.801745,0
90000319,Fagribaer,64.117902000000001,-21.808532,0
90000320,Hraunbaer,64.119823999999994,-21.807887000000001,0
90000321,Helluvad,64.102624000000006,-21.766770999999999,0
90000322,Kambavad,64.100786999999997,-21.765827000000002,0
90000323,Bugda,64.097712000000001,-21.779661000000001,0
90000324,Leiti,64.125434999999996,-21.896737999999999,0
90000325,Vedurstofan,64.127258999999995,-21.907243000000001,0
90000326,Perlan,64.130236999999994,-21.913789000000001,0
90000327,Einarsnes,64.129536000000002,-21.949618999999998,0
90000329,Einarsnes,64.129624000000007,-21.949739000000001,0
90000332,Haskoli islands,64.142219999999995,-21.946825,0
90000333,HR,64.124713,-21.927987999999999,0
90000334,Storhofdi,64.129026999999994,-21.814546,0
90000335,Lindarvad,64.100202999999993,-21.770962000000001,0
90000336,Movad,64.098996,-21.773999,0
90000338,Reidvad,64.098217000000005,-21.776816,0
90000342,Breidhofdi,64.128853000000007,-21.823920000000001,0
90000343,Sudurfell,64.099587999999997,-21.82799,0
90000344,aesufell,64.101750999999993,-21.830020999999999,0
90000345,Nordurfell,64.103686999999994,-21.824862,0
90000346,Vesturberg,64.105647000000005,-21.823142000000001,0
90000347,Sudurholar,64.107928999999999,-21.821142999999999,0
90000348,arbaejarsafn,64.118633000000003,-21.813897999999998,0
90000349,Laxakvisl,64.121233000000004,-21.817246000000001,0
90000350,Silakvisl,64.121369000000001,-21.827197999999999,0
90000351,artunshofdi,64.123209000000003,-21.825762999999998,0
90000352,Sandavad,64.099132999999995,-21.780391999999999,0
90000353,Bildshofdi,64.125552999999996,-21.819095999999998,0
90000354,Vagnhofdi,64.125640000000004,-21.813707999999998,0
90000355,Hofdabakki,64.127211000000003,-21.811826,0
90000356,Funafold,64.136380000000003,-21.806744999999999,0
90000357,Hverafold,64.135579000000007,-21.801781999999999,0
90000358,Foldatorg,64.134635000000003,-21.797646,0
90000359,Logafold,64.135548,-21.793113999999999,0
90000360,Reykjafold,64.137719000000004,-21.790887000000001,0
90000361,Fjolnisvollur,64.139240999999998,-21.789273000000001,0
90000362,Husaskoli,64.139278000000004,-21.784548999999998,0
90000363,Vallarhus,64.139607999999996,-21.780282,0
90000364,Brekkuhus,64.138552000000004,-21.776655000000002,0
90000366,Spongin A,64.150208000000006,-21.791357000000001,0
90000367,Borgavegur,64.149303000000003,-21.787534999999998,0
90000368,Mosarimi,64.145972,-21.787891999999999,0
90000369,Midgardur,64.144486999999998,-21.791620999999999,0
90000370,Fletturimi,64.142182000000005,-21.792563000000001,0
90000371,Berjarimi,64.140846999999994,-21.794042000000001,0
90000373,Vegghamrar,64.138438,-21.808477,0
90000374,Hofdabakki,64.126981999999998,-21.812224000000001,0
90000375,Bjallavad,64.102853999999994,-21.776629,0
90000376,artunshofdi,64.123281000000006,-21.825963000000002,0
90000377,Silakvisl,64.121291999999997,-21.827179999999998,0
90000378,Laxakvisl,64.121185999999994,-21.817062,0
90000379,arbaejarsafn,64.119353000000004,-21.813471,0
90000380,Sudurholar,64.108298000000005,-21.821069999999999,0
90000381,Vesturberg,64.105378999999999,-21.823632,0
90000382,Nordurfell,64.103132000000002,-21.825614000000002,0
90000383,aesufell,64.101747000000003,-21.830307000000001,0
90000384,Sudurfell,64.099575000000002,-21.828261999999999,0
90000385,Fludasel,64.098344999999995,-21.828419,0
90000386,Seljabraut,64.099943999999994,-21.830724,0
90000387,Engjasel,64.102092999999996,-21.833703,0
90000388,Gerdhamrar,64.138277,-21.816292,0
90000389,Seljaskogar,64.103370999999996,-21.835476,0
90000390,Dverghamrar,64.136858,-21.812682,0
90000391,Ferjuvad,64.103829000000005,-21.771664000000001,0
90000394,Kaenugardar,64.151934999999995,-21.864747000000001,0
90000395,Skeifan,64.128502999999995,-21.870422000000001,0
90000396,Sogamyri,64.126326000000006,-21.85755,0
90000397,arvad,64.1011589996583,-21.7780864171875,0
90000398,Hraunbaer,64.119799,-21.808087,0
90000399,Fagribaer,64.117812000000001,-21.808415,0
90000400,Habaer,64.116860000000003,-21.801618000000001,0
90000401,arbaejarskoli,64.116063999999994,-21.796227999999999,0
90000402,Brekkubaer,64.115335000000002,-21.791333999999999,0
90000403,Hraunsas,64.113026000000005,-21.787925000000001,0
90000404,Naefuras,64.111407,-21.785881,0
90000405,Reykas,64.109463000000005,-21.787354000000001,0
90000406,Saudas,64.108063000000001,-21.788401,0
90000407,Vallaras,64.105490000000003,-21.786624,0
90000408,Selasskoli,64.105013999999997,-21.783432000000001,0
90000409,Vallaras,64.105808999999994,-21.786807,0
90000410,Skogaras,64.108103,-21.788205000000001,0
90000411,Reykas,64.109718999999998,-21.786949,0
90000412,Naefuras,64.111586000000003,-21.785536,0
90000413,artun D,64.123604999999998,-21.823945999999999,0
90000414,Sogamyri,64.126723999999996,-21.857773999999999,0
90000415,Skeifan,64.128968,-21.871115,0
90000418,Korpulfsstadir,64.153683000000001,-21.762822,0
90000419,Kaenugardar,64.152092999999994,-21.865259000000002,0
90000420,Bardastadir,64.156749000000005,-21.750935999999999,0
90000421,artun C,64.124564000000007,-21.823575999999999,0
90000422,Heidargerdi,64.127854999999997,-21.876909999999999,0
90000423,almgerdi,64.124461999999994,-21.879465,0
90000424,Jakasel,64.096286000000006,-21.827762,0
90000425,Joklasel,64.094853000000001,-21.830760999999999,0
90000426,Klyfjasel,64.092737,-21.836881999999999,0
90000427,Latrasel,64.093942999999996,-21.841788000000001,0
90000428,Holtasel,64.096073000000004,-21.845217999999999,0
90000429,Holmasel,64.096551000000005,-21.843836,0
90000431,Stiflusel,64.098760999999996,-21.852779000000002,0
90000432,Strandasel,64.100544999999997,-21.857308,0
90000433,iR,64.102521999999993,-21.850059999999999,0
90000434,arskogar,64.104422,-21.84403,0
90000435,almgerdi,64.124771999999993,-21.878778000000001,0
90000436,Jafnasel,64.097731999999993,-21.827839999999998,0
90000437,Heidargerdi,64.127889999999994,-21.876432000000001,0
90000438,Brunastadir,64.155023,-21.757956,0
90000439,Keldnaholt,64.139365999999995,-21.771996999999999,0
90000440,Laufengi,64.144959999999998,-21.775592,0
90000441,Korpa,64.157506999999995,-21.755284,0
90000442,Bakkastadir,64.158046999999996,-21.750857,0
90000443,Brunastadir,64.155090999999999,-21.758423000000001,0
90000444,Fellaskoli,64.101671,-21.822682,0
90000445,Leiknisvollur,64.101979,-21.817125999999998,0
90000446,FB,64.104659999999996,-21.816776000000001,0
90000447,Holagardur,64.107772999999995,-21.815871000000001,0
90000448,thrastarholar,64.107738999999995,-21.809419999999999,0
90000449,Stelksholar,64.109273000000002,-21.804421000000001,0
90000450,Smyrilsholar,64.110243999999994,-21.809901,0
90000451,Hrafnholar,64.110557999999997,-21.815390000000001,0
90000452,Fylsholar,64.111675000000005,-21.818466999999998,0
90000453,Depluholar,64.110290000000006,-21.820872000000001,0
90000455,Vaettaborgir,64.152964,-21.785334,0
90000456,Lokinhamrar,64.138306,-21.806982,0
90000457,Selasskoli,64.104934999999998,-21.783863,0
90000458,Klambratun,64.135469,-21.91402,0
90000459,Sundagardar,64.150767000000002,-21.871359999999999,0
90000460,Hlidar,64.133799999999994,-21.903618000000002,0
90000461,Kringlan,64.132227,-21.893581000000001,0
90000462,Sporhamrar,64.139654,-21.812038,0
90000467,Blahamrar,64.137054,-21.810411,0
90000469,Egilsholl B,64.14819,-21.772144,0
90000471,Korpulfsstadir,64.153307999999996,-21.764408,0
90000473,Vegghamrar,64.138513,-21.808404,0
90000474,Sporhamrar,64.139761,-21.812023,0
90000475,Leidhamrar,64.140624,-21.817025,0
90000480,Lokinhamrar,64.137622,-21.808404,0
90000481,Hlidar,64.134129000000001,-21.903928000000001,0
90000482,Dverghamrar,64.136911,-21.812576,0
90000483,Klambratun,64.136005999999995,-21.916077999999999,0
90000484,Vikurskoli,64.152593,-21.778546,0
90000489,Gerdhamrar,64.138383,-21.816256,0
90000490,Rimaflot,64.144481,-21.806232,0
90000491,Brekkuhus,64.138692000000006,-21.776710000000001,0
90000492,Vallarhus,64.139617999999999,-21.781186000000002,0
90000493,Husaskoli,64.139360999999994,-21.784849000000001,0
90000494,Fjolnisvollur,64.139109000000005,-21.789567999999999,0
90000495,Reykjafold,64.137739999999994,-21.791091999999999,0
90000496,Logafold,64.135625000000005,-21.793327000000001,0
90000497,Foldatorg,64.134851999999995,-21.798155999999999,0
90000498,Hverafold,64.135784000000001,-21.802316999999999,0
90000499,Funafold,64.136534999999995,-21.807020000000001,0
90000500,Borgavegur,64.149625,-21.788861000000001,0
90000501,Vaettaborgir,64.153015,-21.785335,0
90000502,Vikurskoli,64.15272,-21.779028,0
90000503,Hesthamrar,64.139427,-21.818164,0
90000504,Gullinbru,64.133314999999996,-21.813624000000001,0
90000507,Leidhamrar,64.140539,-21.81694,0
90000508,arskogar,64.104707000000005,-21.843823,0
90000509,iR,64.102635000000006,-21.850158,0
90000510,Strandasel,64.100688000000005,-21.857382000000001,0
90000511,Stiflusel,64.098483999999999,-21.851918000000001,0
90000512,Holmasel,64.096777000000003,-21.843647000000001,0
90000513,Holtasel,64.095962,-21.845364,0
90000514,Latrasel,64.093635000000006,-21.841113,0
90000515,Klyfjasel,64.092905999999999,-21.836071,0
90000516,Joklasel,64.094551999999993,-21.831356,0
90000517,Jakasel,64.09639,-21.827376999999998,0
90000518,Egilsholl B,64.148161,-21.772222,0
90000519,Egilsholl A,64.145171,-21.774141,0
90000521,Jafnasel,64.097864000000001,-21.827732999999998,0
90000522,Holabrekkuskoli,64.107945999999998,-21.817730000000001,0
90000523,Hesthamrar,64.139332,-21.818393,0
90000524,FB,64.104985999999997,-21.817050999999999,0
90000525,Leiknisvollur,64.101994000000005,-21.817495000000001,0
90000526,Fellaskoli,64.101775,-21.82293,0
90000527,Biskupsgata,64.12567,-21.735856999999999,0
90000529,Berjarimi,64.140749,-21.793928000000001,0
90000530,Fletturimi,64.142384000000007,-21.792345000000001,0
90000531,Midgardur,64.144565999999998,-21.791284000000001,0
90000532,Mosarimi,64.146055000000004,-21.787452999999999,0
90000534,Keldnaholt,64.139227000000005,-21.772366999999999,0
90000537,thveras,64.1035037890937,-21.7832391624273,0
90000541,Vinlandsleid,64.130432999999996,-21.763805999999999,0
90000542,thusold,64.129225000000005,-21.765284000000001,0
90000546,thordarsveigur,64.126337000000007,-21.744282999999999,0
90000547,Geislabaugur,64.126919000000001,-21.752396000000001,0
90000548,Ingunnarskoli,64.126812000000001,-21.757563999999999,0
90000549,Saemundarskoli,64.125966000000005,-21.740397999999999,0
90000550,Mariubaugur,64.127101999999994,-21.767292000000001,0
90000551,Biskupsgata,64.125667000000007,-21.735565999999999,0
90000556,Skalagerdi,64.126062000000005,-21.878181999999999,0
90000557,Skalagerdi,64.1265509276963,-21.8774411223735,0
90000558,Svarthofdi,64.129084000000006,-21.820367999999998,0
90000559,Svarthofdi,64.129017000000005,-21.819683000000001,0
90000600,Halsar,64.124237,-21.793601,0
90000609,oskjuhlid,64.130283,-21.930057,0
90000627,Dalbraut,64.150638000000001,-21.874600999999998,0
90000628,Laugaras,64.148988000000003,-21.867222000000002,0
90000629,Hjallavegur,64.145760999999993,-21.858682999999999,0
90000630,Kirkjusandur,64.149555000000007,-21.888833000000002,0
90000631,Kirkjusandur,64.149596000000003,-21.889514999999999,0
90000632,Borgarholtsskoli,64.150362999999999,-21.784939000000001,0
90000633,Borgarholtsskoli,64.150336999999993,-21.784783999999998,0
90000634,Selvad,64.100352999999998,-21.778268000000001,0
90000645,Halsar,64.124466999999996,-21.798732000000001,0
90000650,Fellsvegur,64.12986,-21.727788,0
90000651,ulfarsbraut,64.13279,-21.736783,0
90000652,Lambhagavegur,64.13123,-21.751643,0
90000653,Skyggnisbraut,64.13606,-21.735226,0
90000654,Skyggnistorg,64.13642,-21.740884,0
90000655,Lambhagavegur,64.13119,-21.751475,0
90000656,ulfarsbraut,64.13277,-21.736831,0
90000657,Fellsvegur,64.12942,-21.728207,0
90000661,Gullengi,64.145752,-21.783106,0
90000702,Esjuraetur,64.208419000000006,-21.712028,0
90000703,Klebergsskoli,64.237888999999996,-21.824185,0
90000704,Vallargrund / Esjugrund,64.240824000000003,-21.828047999999999,0
90000705,Vallargrund,64.241861999999998,-21.829999000000001,0
90000707,Vallargrund / Esjugrund,64.240628999999998,-21.827923999999999,0
90000708,Klebergsskoli,64.237804999999994,-21.824263999999999,0
90000711,Vallargrund,64.241735000000006,-21.82977,0
90000712,Harpa,64.14943,-21.930277,0
90000713,Harpa,64.149398,-21.932189,0
90000717,Depluholar,64.110748000000001,-21.819953999999999,0
90000718,Fylsholar,64.111620000000002,-21.817805,0
90000719,Hrafnholar,64.110622000000006,-21.815553999999999,0
90000720,Smyrilsholar,64.110190000000003,-21.809422999999999,0
90000721,Stelksholar,64.109089999999995,-21.804492,0
90000722,thrastarholar,64.107806999999994,-21.808807000000002,0
90000723,Holagardur,64.107844999999998,-21.816040000000001,0
90000724,Seljaskogar,64.103092000000004,-21.835325999999998,0
90000725,Engjasel,64.101909000000006,-21.833665,0
90000726,Seljabraut,64.099637999999999,-21.830507000000001,0
90000727,Fludasel,64.098228000000006,-21.828427000000001,0
90000729,Brautaras,64.114922000000007,-21.787623,0
90000731,Halsabraut,64.119653999999997,-21.797871000000001,0
90000732,Baejarbraut,64.117652000000007,-21.799351999999999,0
90000733,Baejarbraut,64.117724999999993,-21.799091000000001,0
90000734,Halsabraut,64.119641000000001,-21.797585999999999,0
90000736,Blahamrar,64.136947,-21.810359,0
90000737,Vikurvegur,64.144200999999995,-21.774926000000001,0
90000740,Volundarhus,64.138160999999997,-21.773972000000001,0
90000741,Volundarhus,64.138281000000006,-21.77421,0
90000744,Nethylur,64.122195000000005,-21.815114000000001,0
90000747,Esjumelar,64.194125999999997,-21.697398,0
90000748,Esjumelar,64.194212,-21.697271,0
90000749,Helluvad,64.102703000000005,-21.766722999999999,0
90000750,Ferjuvad,64.103900999999993,-21.771639,0
90000751,Bjallavad,64.102902999999998,-21.776744000000001,0
90000752,arvad,64.101478,-21.778261000000001,0
90000753,Gefjunarbrunnur,64.134737999999999,-21.745795000000001,0
90000754,Gullengi,64.146047,-21.783243,0
90000755,Bitruhals,64.121937000000003,-21.806509999999999,0
90000756,Grjothals,64.123575000000002,-21.803080999999999,0
90000757,Hesthals,64.123163000000005,-21.797097000000001,0
90000758,Hesthals,64.123373999999998,-21.796755999999998,0
90000759,Grjothals,64.123692000000005,-21.803101000000002,0
90000760,Bitruhals,64.121949999999998,-21.806757999999999,0
90000763,Mimisbrunnur,64.134028999999998,-21.750167000000001,0
90000764,Reynisvatn,64.126632,-21.731949,0
90000767,Reynisvatn,64.126568,-21.732504,0
90000768,Gufunesbaer,64.1432103435359,-21.8075270833849,0
90000769,Egilsholl C,64.1464702667525,-21.7713740060721,0
90000770,Rimaflot,64.144722,-21.805754,0
90000771,ulfarsa,64.1358527085922,-21.7601463181546,0
90000772,ulfarsa,64.135916,-21.760679,0
90000774,Bardastadir,64.155669,-21.751715,0
90000775,Solfarid,64.147036,-21.921625,0
90000776,Solfarid,64.146499939059,-21.9209138374482,0
90000777,Skyggnistorg,64.136328,-21.740712,0
90000778,Skyggnisbraut,64.135914492146497,-21.735381759014501,0
90000779,Gefjunarbrunnur,64.1348595193503,-21.7459323444902,0
90000780,Borgartun,64.145743026896497,-21.901810070218801,0
90000781,Borgartun,64.1458538511298,-21.902033705472,0
90000784,Flydrugrandi,64.146497586512893,-21.9649264770744,0
90000797,Norduras,64.113354,-21.784981,0
90000821,Bio Paradis,64.1456391584898,-21.9248541506857,0
90000822,Bio Paradis,64.1457374271584,-21.9258222252765,0
90000823,Baronsstigur,64.1445306090398,-21.9197335300998,0
90000824,Mosavegur,64.1513505277903,-21.7740144891439,0
90000825,Skolavegur,64.1505905585822,-21.780350566037,0
90000827,Skolavegur,64.150554875964,-21.7806198564486,0
90000828,Mosavegur,64.1512406045878,-21.7738817056917,0
90000829,Sjukrahotel,64.1396529521985,-21.9283675315089,0
90000830,Heilsuverndarstodin,64.1409925210397,-21.9232080587545,0
90000831,Heilsuverndarstodin,64.1408158421469,-21.923355354822,0
90000832,Sjukrahotel,64.1394715302765,-21.9294740174921,0
90000833,Laekjartorg C,64.1480436105954,-21.9346417050613,0
90000834,Gamla Hringbraut,64.13820220612,-21.9325578575586,0
90000835,Gamla Hringbraut,64.1383737307461,-21.9331339700046,0
90000837,Snorrabraut Hlemmur,64.1434733475698,-21.9163587374161,0
90000839,Vinlandsleid,64.1305961186251,-21.7638520718002,0
90000840,Krokhals,64.1234543423351,-21.7794510433599,0
90000841,Studlahals,64.1216751303119,-21.791994722479,0
90000842,Krokhals,64.1232972804537,-21.7794661350101,0
90000844,Laeknagardur,64.13597,-21.929238,0
90000845,Laeknagardur,64.135734,-21.9311,0
90000846,Hafnarhus,64.14959,-21.93968,0
90000852,Valsheimilid,64.1342960813657,-21.9228104042483,0
90000853,Spongin B,64.149884,-21.787933,0
90000854,Borgaskoli,64.152449,-21.789088,0
90000855,Borgaskoli,64.152178,-21.789099,0
90000856,Hofsgrund,64.2406200739372,-21.8355671587748,0
90000858,Jofurbas,64.153954995581,-21.8058795077637,0
90000859,Gufunesvegur,64.152653,-21.813195,0
90000860,Nordlingaskoli,64.10103,-21.77485,0
90010295,Hlemmur A,64.143303656234,-21.9146771540298,0
90020295,Hlemmur B,64.14371863723369,-21.915081291158856,0
90030295,Hlemmur C,64.143421,-21.913936,0
90040295,Hlemmur D,64.14363220143551,-21.913304988618993,0
